[
	{
		"name": "Kurfürstengarage",
		"latitude": 49.441433,
		"longitude": 11.860592
	},
	{
		"name": "Theatergarage",
		"latitude": 49.446496,
		"longitude": 11.854837
	},
	{
		"name": "Kräuterwiese",
		"latitude": 49.449208,
		"longitude": 11.852604
	},
	{
		"name": "Am Ziegeltor",
		"latitude": 49.448569,
		"longitude": 11.856568
	},
	{
		"name": "Kurfürstenbad",
		"latitude": 49.441916,
		"longitude": 11.859739
	},
	{
		"name": "Kino",
		"latitude": 49.444563,
		"longitude": 11.865225
	},
	{
		"name": "ACC",
		"latitude": 49.441162,
		"longitude": 11.860792
	},
	{
		"name": "Altstadtgarage",
		"latitude": 49.447718,
		"longitude": 11.860971
	},
	{
		"name": "Marienstraße",
		"latitude": 49.444472,
		"longitude": 11.866957
	}
]
